[
  {
    "name": "Mitad del Mundo",
    "description": "Monumento y museo que marca la línea ecuatorial, donde puedes estar en dos hemisferios al mismo tiempo.",
    "latitude": -0.0022,
    "longitude": -78.4558,
    "interestVector": {
      "culture": 5,
      "gastronomy": 2,
      "hotel": 1,
      "nature": 2
    }
  },
  {
    "name": "Centro Histórico de Quito",
    "description": "Patrimonio de la Humanidad por la UNESCO, con arquitectura colonial, iglesias y plazas históricas.",
    "latitude": -0.2201,
    "longitude": -78.5123,
    "interestVector": {
      "culture": 5,
      "gastronomy": 2,
      "hotel": 1,
      "nature": 2
    }
  },
  {
    "name": "Basílica del Voto Nacional",
    "description": "Iglesia neogótica más grande de América, con impresionantes torres y vistas panorámicas de Quito.",
    "latitude": -0.215,
    "longitude": -78.507,
    "interestVector": {
      "culture": 5,
      "gastronomy": 2,
      "hotel": 1,
      "nature": 2
    }
  },
  {
    "name": "Teleférico de Quito",
    "description": "Sistema de transporte aéreo que llega a 4,050 metros de altura con vistas espectaculares de la ciudad y volcanes.",
    "latitude": -0.1897,
    "longitude": -78.5214,
    "interestVector": {
      "culture": 3,
      "gastronomy": 2,
      "hotel": 2,
      "nature": 3
    }
  },
  {
    "name": "Volcán Pichincha",
    "description": "Volcán activo que domina el paisaje de Quito, ideal para senderismo y aventura.",
    "latitude": -0.1714,
    "longitude": -78.5983,
    "interestVector": {
      "culture": 2,
      "gastronomy": 2,
      "hotel": 1,
      "nature": 5
    }
  },
  {
    "name": "Laguna de Mojanda",
    "description": "Conjunto de tres lagunas de origen volcánico rodeadas de páramo y paisajes andinos.",
    "latitude": 0.1333,
    "longitude": -78.2667,
    "interestVector": {
      "culture": 2,
      "gastronomy": 2,
      "hotel": 1,
      "nature": 5
    }
  },
  {
    "name": "Reserva Geobotánica Pululahua",
    "description": "Cráter volcánico habitado con microclima único, ideal para caminatas y observación de flora.",
    "latitude": 0.0417,
    "longitude": -78.5,
    "interestVector": {
      "culture": 2,
      "gastronomy": 2,
      "hotel": 1,
      "nature": 5
    }
  },
  {
    "name": "Iglesia de la Compañía de Jesús",
    "description": "Obra maestra del barroco sudamericano con interior cubierto de pan de oro.",
    "latitude": -0.2197,
    "longitude": -78.5148,
    "interestVector": {
      "culture": 3,
      "gastronomy": 2,
      "hotel": 2,
      "nature": 3
    }
  },
  {
    "name": "Plaza Grande",
    "description": "Plaza central de Quito rodeada por el Palacio de Carondelet, la Catedral y edificios históricos.",
    "latitude": -0.2203,
    "longitude": -78.5125,
    "interestVector": {
      "culture": 5,
      "gastronomy": 2,
      "hotel": 1,
      "nature": 2
    }
  },
  {
    "name": "El Panecillo",
    "description": "Colina con la estatua de la Virgen de Quito, ofrece vistas panorámicas de toda la ciudad.",
    "latitude": -0.23,
    "longitude": -78.5183,
    "interestVector": {
      "culture": 3,
      "gastronomy": 2,
      "hotel": 2,
      "nature": 3
    }
  },
  {
    "name": "Mindo",
    "description": "Bosque nublado famoso por su biodiversidad, avistamiento de aves y actividades de aventura.",
    "latitude": -0.05,
    "longitude": -78.7667,
    "interestVector": {
      "culture": 2,
      "gastronomy": 2,
      "hotel": 1,
      "nature": 5
    }
  },
  {
    "name": "Cascadas de Mindo",
    "description": "Serie de cascadas en el bosque nublado accesibles mediante senderos ecológicos.",
    "latitude": -0.055,
    "longitude": -78.77,
    "interestVector": {
      "culture": 2,
      "gastronomy": 2,
      "hotel": 1,
      "nature": 5
    }
  },
  {
    "name": "Mercado de Otavalo",
    "description": "Famoso mercado indígena con artesanías, textiles y productos tradicionales ecuatorianos.",
    "latitude": 0.2342,
    "longitude": -78.2614,
    "interestVector": {
      "culture": 3,
      "gastronomy": 4,
      "hotel": 1,
      "nature": 2
    }
  },
  {
    "name": "Laguna de San Pablo",
    "description": "Hermosa laguna al pie del volcán Imbabura, ideal para deportes acuáticos y paseos.",
    "latitude": 0.2167,
    "longitude": -78.2167,
    "interestVector": {
      "culture": 2,
      "gastronomy": 2,
      "hotel": 1,
      "nature": 5
    }
  },
  {
    "name": "Parque La Carolina",
    "description": "Gran parque urbano de Quito con jardín botánico, vivarium y espacios recreativos.",
    "latitude": -0.1833,
    "longitude": -78.4833,
    "interestVector": {
      "culture": 3,
      "gastronomy": 2,
      "hotel": 2,
      "nature": 3
    }
  },
  {
    "name": "Museo Nacional del Ecuador",
    "description": "Principal museo del país con colecciones de arte precolombino, colonial y contemporáneo.",
    "latitude": -0.212,
    "longitude": -78.49,
    "interestVector": {
      "culture": 5,
      "gastronomy": 2,
      "hotel": 1,
      "nature": 2
    }
  },
  {
    "name": "Calle La Ronda",
    "description": "Calle bohemia con arquitectura colonial, talleres artesanales, restaurantes y vida nocturna.",
    "latitude": -0.225,
    "longitude": -78.515,
    "interestVector": {
      "culture": 3,
      "gastronomy": 4,
      "hotel": 1,
      "nature": 2
    }
  },
  {
    "name": "Santuario de Guápulo",
    "description": "Iglesia colonial del siglo XVII con arte barroco, ubicada en un pintoresco barrio de Quito.",
    "latitude": -0.2,
    "longitude": -78.475,
    "interestVector": {
      "culture": 5,
      "gastronomy": 2,
      "hotel": 1,
      "nature": 2
    }
  },
  {
    "name": "Termas de Papallacta",
    "description": "Aguas termales naturales en los Andes, perfectas para relajación con vistas al páramo.",
    "latitude": -0.3667,
    "longitude": -78.15,
    "interestVector": {
      "culture": 2,
      "gastronomy": 1,
      "hotel": 4,
      "nature": 3
    }
  },
  {
    "name": "Bosque Protector Pasochoa",
    "description": "Reserva ecológica en un antiguo cráter volcánico con senderos y biodiversidad andina.",
    "latitude": -0.4333,
    "longitude": -78.5,
    "interestVector": {
      "culture": 2,
      "gastronomy": 2,
      "hotel": 1,
      "nature": 5
    }
  },
  {
    "name": "Museo Intiñan",
    "description": "Museo interactivo cerca de la Mitad del Mundo con experimentos sobre la línea ecuatorial.",
    "latitude": -0.003,
    "longitude": -78.456,
    "interestVector": {
      "culture": 5,
      "gastronomy": 2,
      "hotel": 1,
      "nature": 2
    }
  },
  {
    "name": "Capilla del Hombre",
    "description": "Museo dedicado a la obra del artista Oswaldo Guayasamín con arte latinoamericano.",
    "latitude": -0.195,
    "longitude": -78.47,
    "interestVector": {
      "culture": 5,
      "gastronomy": 2,
      "hotel": 1,
      "nature": 2
    }
  },
  {
    "name": "Cayambe",
    "description": "Ciudad conocida por sus bizcochos tradicionales y el volcán nevado Cayambe.",
    "latitude": 0.0417,
    "longitude": -78.15,
    "interestVector": {
      "culture": 3,
      "gastronomy": 4,
      "hotel": 1,
      "nature": 2
    }
  },
  {
    "name": "Plaza Foch",
    "description": "Centro de entretenimiento y gastronomía en la zona de La Mariscal con restaurantes y bares.",
    "latitude": -0.203,
    "longitude": -78.492,
    "interestVector": {
      "culture": 3,
      "gastronomy": 4,
      "hotel": 1,
      "nature": 2
    }
  }
]